%%%%%%%%%%%%%%%%%%%%%%%%%%%%%%%%%%%%%%%%%%%%%%%%%%%%%%%%%%%
%% LOG FILE:       ./LOG_FELIX_25_4_2017_____17_32_39/LOG_FELIX_25_4_2017_____17_32_39.alog
%% FILE OPENED ON  Thu Jan  1 00:00:00 1970
%% LOGSTART               1493141558.34
%%%%%%%%%%%%%%%%%%%%%%%%%%%%%%%%%%%%%%%%%%%%%%%%%%%%%%%%%%%
0.409           APPCAST_REQ_ALL      uMAC_3847       node=all,app=all,duration=3.0,key=uMAC_3847:app,thresh=run_warning 
0.460           IVPHELM_REGISTER     pHelmIvP        NODE_REPORT_LOCAL 
0.470           PROC_WATCH_TIME_WARP uProcessWatch   1.00000      
0.473           PROC_WATCH_EVENT     uProcessWatch   Noted to be present: [pLogger] 
0.474           PROC_WATCH_SUMMARY   uProcessWatch    
0.474           UPROCESSWATCH_ITER_LEN uProcessWatch   0.00001      
0.475           APPCAST              uProcessWatch   proc=uProcessWatch!@#iter=1!@#node=felix!@#iter=1!@#messages=Summary: !@!@Antler List: iM200,pBasicContactMgr,pDeadManPost,pHelmIvP!@             pHostInfo,pLogger,pMarinePID,pNodeReporter,pShare!@             uFldMessageHandler,uFldNodeBroker!@!@                                             Current    Max     !@ProcName             Watch Reason   Status   CPU Load   CPU Load!@------------------   ------------   ------   --------   --------!@iM200                ANT            [7;32mOK[0m       0.00       0.00    !@pBasicContactMgr     ANT            [7;32mOK[0m       0.00       0.00    !@pDeadManPost         ANT            [7;32mOK[0m       0.00       0.00    !@pHelmIvP             ANT WATCH      [7;32mOK[0m       0.00       0.00    !@pHostInfo            ANT            [7;32mOK[0m       0.00       0.00    !@pLogger              ANT            [7;32mOK[0m       0.00       0.00    !@pMarinePID           ANT WATCH      [7;32mOK[0m       0.00       0.00    !@pNodeReporter        ANT WATCH      [7;32mOK[0m       0.00       0.00    !@pShare               ANT WATCH      [7;32mOK[0m       0.00       0.00    !@uFldMessageHandler   ANT            [7;32mOK[0m       0.00       0.00    !@uFldNodeBroker       ANT            [7;32mOK[0m       0.00       0.00    !@!@#!@#events_total=8!@#events=Noted to be present: [pNodeReporter]!@Noted to be present: [uFldMessageHandler]!@Noted to be present: [iM200]!@Noted to be present: [pDeadManPost]!@Noted to be present: [uFldNodeBroker]!@Noted to be present: [pHostInfo]!@Noted to be present: [pBasicContactMgr]!@Noted to be present: [pLogger]!@#run_warning_total=0!@# 
0.609           APPCAST_REQ          uMAC_3847       node=felix,app=all,duration=0.1,key=uMAC_3847startup,thresh=any 
0.609           APPCAST_REQ_FELIX    uMAC_3847       node=felix,app=all,duration=0.1,key=uMAC_3847startup,thresh=any 
0.726           LOGGER_DIRECTORY     pLogger         ./LOG_FELIX_25_4_2017_____17_32_39 
0.782           DB_EVENT             MOOSDB_felix    connected=uFldNodeBroker 
0.812           NODE_REPORT_LOCAL    pNodeReporter   NAME=felix,TYPE=kayak,COLOR=blue,GROUP=blue,MODE=NOHELM-EVER,ALLSTOP=unknown,YAW=1.5707963,TIME=1493141559.15,LENGTH=4 
0.812           APPCAST              pNodeReporter   proc=pNodeReporter!@#iter=1!@#node=felix!@#iter=1!@#messages=Paused: false!@Vehicle Configuration:!@----------------------------!@     Vehicle name: felix!@     Vehicle type: kayak!@   Vehicle length: 4.0!@!@Blackout Configuration:!@----------------------------!@Blackout interval: 0.00!@Blackout variance: 0.00!@!@AltNav Config and Status:!@----------------------------!@   ALT_NAV_PREFIX: !@     ALT_NAV_NAME: _GT!@ ALT_NAV_POSTINGS: 0!@!@Node Report Summary:!@----------------------------!@Reports Posted: 1!@ Latest Report: NAME=felix,TYPE=kayak,COLOR=blue,GROUP=blue,!@                MODE=NOHELM-EVER,ALLSTOP=unknown,YAW=1.5707963,!@                TIME=1493141559.15,LENGTH=4!@!@#!@#events_total=0!@#!@#run_warning_total=0!@# 
0.883           DB_EVENT             MOOSDB_felix    connected=pDeadManPost 
0.903           MOOS_DEBUG           pMarinePID      ** NEW CONTROLLER GAINS ARE ** 
0.903           MOOS_DEBUG           pMarinePID      YAW_PID_KP             = 0.900 
0.903           MOOS_DEBUG           pMarinePID      YAW_PID_KD             = 0.300 
0.903           MOOS_DEBUG           pMarinePID      YAW_PID_KI             = 0.300 
0.903           MOOS_DEBUG           pMarinePID      YAW_PID_INTEGRAL_LIMIT = 0.300 
0.903           MOOS_DEBUG           pMarinePID      MAXRUDDER              = 100.000 
0.908           MOOS_DEBUG           pMarinePID      SPEED_PID_KP           = 1.000 
0.908           MOOS_DEBUG           pMarinePID      SPEED_PID_KD           = 0.000 
0.908           MOOS_DEBUG           pMarinePID      SPEED_PID_KI           = 0.000 
0.908           MOOS_DEBUG           pMarinePID      SPEED_PID_INTEGRAL_LIMIT = 0.070 
0.908           MOOS_DEBUG           pMarinePID      MAXTHRUST              = 100.000 
0.909           MOOS_DEBUG           pMarinePID      Paused Due To Tardy HELM Input: THRUST=0 
0.974           UPROCESSWATCH_ITER_LEN uProcessWatch   0.00005      
0.975           APPCAST              uProcessWatch   proc=uProcessWatch!@#iter=2!@#node=felix!@#iter=2!@#messages=Summary: !@!@Antler List: iM200,pBasicContactMgr,pDeadManPost,pHelmIvP!@             pHostInfo,pLogger,pMarinePID,pNodeReporter,pShare!@             uFldMessageHandler,uFldNodeBroker!@!@                                             Current    Max     !@ProcName             Watch Reason   Status   CPU Load   CPU Load!@------------------   ------------   ------   --------   --------!@iM200                ANT            [7;32mOK[0m       0.00       0.00    !@pBasicContactMgr     ANT            [7;32mOK[0m       0.00       0.00    !@pDeadManPost         ANT            [7;32mOK[0m       0.00       0.00    !@pHelmIvP             ANT WATCH      [7;32mOK[0m       0.00       0.00    !@pHostInfo            ANT            [7;32mOK[0m       0.00       0.00    !@pLogger              ANT            [7;32mOK[0m       6.00       6.00    !@pMarinePID           ANT WATCH      [7;32mOK[0m       6.00       6.00    !@pNodeReporter        ANT WATCH      [7;32mOK[0m       8.00       8.00    !@pShare               ANT WATCH      [7;32mOK[0m       4.00       4.00    !@uFldMessageHandler   ANT            [7;32mOK[0m       0.00       0.00    !@uFldNodeBroker       ANT            [7;32mOK[0m       0.00       0.00    !@!@#!@#events_total=8!@#events=Noted to be present: [pNodeReporter]!@Noted to be present: [uFldMessageHandler]!@Noted to be present: [iM200]!@Noted to be present: [pDeadManPost]!@Noted to be present: [uFldNodeBroker]!@Noted to be present: [pHostInfo]!@Noted to be present: [pBasicContactMgr]!@Noted to be present: [pLogger]!@#run_warning_total=0!@# 
0.983           DB_EVENT             MOOSDB_felix    connected=iM200 
1.010           APPCAST_REQ          uMAC_3847       node=all,app=all,duration=3.0,key=uMAC_3847:app,thresh=run_warning 
1.010           APPCAST_REQ_ALL      uMAC_3847       node=all,app=all,duration=3.0,key=uMAC_3847:app,thresh=run_warning 
1.018           IVPHELM_REGISTER     pHelmIvP        IVPHELM_STATE 
1.018           IVPHELM_REGISTER     pHelmIvP        DB_CLIENTS 
1.018           IVPHELM_REGISTER     pHelmIvP        MOOS_MANUAL_OVERIDE 
1.018           IVPHELM_REGISTER     pHelmIvP        MOOS_MANUAL_OVERRIDE 
1.018           IVPHELM_REGISTER     pHelmIvP        RESTART_HELM 
1.018           IVPHELM_REGISTER     pHelmIvP        IVPHELM_REJOURNAL 
1.018           IVPHELM_REGISTER     pHelmIvP        NAV_SPEED 
1.018           IVPHELM_REGISTER     pHelmIvP        NAV_HEADING 
1.018           IVPHELM_REGISTER     pHelmIvP        NAV_DEPTH 
1.018           IVPHELM_REGISTER     pHelmIvP        HELM_MAP_CLEAR 
1.018           IVPHELM_REGISTER     pHelmIvP        AIS_REPORT 
1.018           IVPHELM_REGISTER     pHelmIvP        NODE_REPORT 
1.018           IVPHELM_REGISTER     pHelmIvP        AIS_REPORT_LOCAL 
1.018           IVPHELM_REGISTER     pHelmIvP        NODE_REPORT_LOCAL 
1.018           IVPHELM_REGISTER     pHelmIvP        RETURN 
1.018           IVPHELM_REGISTER     pHelmIvP        DEPLOY 
1.018           IVPHELM_REGISTER     pHelmIvP        NAV_X 
1.018           IVPHELM_REGISTER     pHelmIvP        NAV_Y 
1.018           IVPHELM_REGISTER     pHelmIvP        NAV_SPEED 
1.018           IVPHELM_REGISTER     pHelmIvP        WPT_UPDATE 
1.018           IVPHELM_REGISTER     pHelmIvP        RETURN_UPDATE 
1.018           IVPHELM_REGISTER     pHelmIvP        SPD 
1.018           IVPHELM_REGISTER     pHelmIvP        CONST_SPD_RESET 
1.018           IVPHELM_REGISTER     pHelmIvP        SPEED_UPDATE 
1.018           PLOGGER_CMD          pHelmIvP        COPY_FILE_REQUEST = targ_felix.bhv 
1.019           IVPHELM_STATE        pHelmIvP        PARK 
1.019           MOOS_DEBUG           pHelmIvP        pHelmIvP AllStop: ManualOverride 
1.019           IVPHELM_ALLSTOP      pHelmIvP        ManualOverride 
1.019           DESIRED_SPEED        pHelmIvP        0.00000      
1.019           DESIRED_HEADING      pHelmIvP        0.00000      
1.019           APPCAST              pHelmIvP        proc=pHelmIvP!@#iter=1!@#node=felix!@#iter=1!@#messages=  Helm Iteration: 0!@  IvP Functions:  0!@  Mode(s):        !@  SolveTime:   0.00   (max=0.00)!@  CreateTime:  0.00   (max=0.00)!@  LoopTime:    0.00   (max=0.00)!@  Halted:         false   (0 warnings)!@Helm Decision: []!@Behaviors Spawnable: --------- (0)!@Behaviors Active: ---------- (0)!@Behaviors Running: --------- (0)!@Behaviors Idle: ------------ (0)!@  !@Behaviors Completed: ------- (0)!@!@!@Variable  Behavior  Time  Iter  Value!@--------  --------  ----  ----  -----!@!@#!@#events_total=0!@#!@#run_warning_total=0!@# 
1.084           DB_EVENT             MOOSDB_felix    connected=uFldMessageHandler 
1.138           APPCAST              pBasicContactMgr proc=pBasicContactMgr!@#iter=1!@#node=felix!@#iter=1!@#messages=DisplayRadii:              0!@Deriving X/Y from Lat/Lon: 0!@!@Alert Configurations (1):!@---------------------Alert ID = trail!@  VARNAME   = TRAIL_INFO!@  PATTERN   = name=$[VNAME]#contact=mokai!@  RANGE     = 140, gray70!@  CPA_RANGE = 35, gray30!@!@Alert Status Summary: !@----------------------!@       List: !@    Alerted: !@  UnAlerted: !@    Retired: !@      Recap: !@!@Contact Status Summary:!@-----------------------!@Contact      Range     Alerts     Alerts     Alerts  !@            Actual     Total      Active     Resolved!@-------     ------     ------     ------     --------!@!@#!@#events_total=0!@#!@#run_warning_total=0!@# 
1.269           IVPHELM_STATE        pHelmIvP        PARK 
1.313           NODE_REPORT_LOCAL    pNodeReporter   NAME=felix,TYPE=kayak,COLOR=blue,GROUP=blue,MODE=PARK,ALLSTOP=ManualOverride,INDEX=1,YAW=1.5707963,TIME=1493141559.65,LENGTH=4 
1.326           PSHARE_CMD           uFldNodeBroker  cmd=output,src_name=NODE_BROKER_PING_0,dest_name=NODE_BROKER_PING,route=192.168.1.155:9200 
1.326           PSHARE_CMD           uFldNodeBroker  cmd=output,src_name=NODE_BROKER_PING_1,dest_name=NODE_BROKER_PING,route=192.168.1.157:9200 
1.326           PSHARE_CMD           uFldNodeBroker  cmd=output,src_name=NODE_BROKER_PING_2,dest_name=NODE_BROKER_PING,route=192.168.1.226:9200 
1.327           PSHARE_CMD           uFldNodeBroker  cmd=output,src_name=NODE_BROKER_PING_0,dest_name=NODE_BROKER_PING,route=192.168.1.155:9200 
1.327           PSHARE_CMD           uFldNodeBroker  cmd=output,src_name=NODE_BROKER_PING_1,dest_name=NODE_BROKER_PING,route=192.168.1.157:9200 
1.327           PSHARE_CMD           uFldNodeBroker  cmd=output,src_name=NODE_BROKER_PING_2,dest_name=NODE_BROKER_PING,route=192.168.1.226:9200 
1.327           APPCAST              uFldNodeBroker  proc=uFldNodeBroker!@#iter=1!@#node=felix!@#iter=1!@#messages=!@  Total OK  PHI_HOST_INFO    received: 0!@  Total BAD PHI_HOST_INFO    received: 0!@  Total HOST_INFO changes    received: 0!@  Total          PSHARE_CMD    posted: 6!@  Total BAD NODE_BROKER_ACK  received: 0!@!@===========================================================!@             Vehicle Node Information:!@===========================================================!@!@     Community: felix!@        HostIP: !@   Port MOOSDB: !@     Time Warp: !@   TryHost IPs: 192.168.1.155,192.168.1.157,192.168.1.226!@      IRoutes: !@===========================================================!@            Shoreside Node(s) Information:!@===========================================================!@!@Community                      Pings  Pings  IP       Time!@Name       Route               Sent   Acked  Address  Warp!@---------  ------------------  -----  -----  -------  ----!@           192.168.1.155:9200  0      0                   !@           192.168.1.157:9200  0      0                   !@           192.168.1.226:9200  0      0                   !@!@Phase Completion Summary:!@------------------------------------!@ Phase 1: (N) Valid Host information retrieved (iroutes).!@ Phase 2: (Y) Valid TryHosts (3) configured.!@ Phase 3: (N) NODE_BROKER_PINGS are being sent to TryHosts.!@ Phase 4: (N) A Valid NODE_BROKER_ACK has been received.!@ Phase 5: (N) pShare requested to share user vars with shoreside.!@*Hint: Phase 1 problem. Check status/output of pHostInfo.              !@!@#!@#events_total=0!@#!@#run_warning_total=0!@# 
1.330           APPCAST              pHostInfo       proc=pHostInfo!@#iter=1!@#node=felix!@#iter=1!@#messages=!@  PHI_HOST_IP:         192.168.6.100[0m!@  PHI_HOST_IP_ALL:     192.168.6.100,192.168.6.100!@!@  PHI_HOST_IP_VERBOSE: LINUX_ETH0=192.168.6.100,!@                       LINUX_ANY=192.168.6.100!@!@  PHI_HOST_PORT:       9006!@  PHI_PSHARES_IROUTES: !@  PHI_HOST_INFO:       community=felix,hostip=192.168.6.100,!@                       port_db=9006,hostip_alts=,timewarp=1!@!@#!@#events_total=0!@#!@#run_warning_total=0!@# 
1.399           APPCAST              pDeadManPost    proc=pDeadManPost!@#iter=1!@#node=felix!@#iter=1!@#messages=Configuration:!@-------------------------------------!@      heart_var: HEARTBEAT!@    max_noheart: 15!@active_at_start: false!@    post_policy: reset!@      deadflags: (1)!@                [1] DEPLOY=false!@!@State:!@-------------------------------------!@  Elapsed Time: N/A!@Time Remaining: N/A!@    Heartbeats: 0!@Total Postings: 0!@!@#!@#events_total=0!@#!@#run_warning_total=0!@# 
1.475           UPROCESSWATCH_ITER_LEN uProcessWatch   0.00004      
1.520           IVPHELM_STATE        pHelmIvP        PARK 
1.568           NAV_HEADING          iM200           102.27000    
1.568           NAV_LAT              iM200           42.35854     
1.568           NAV_LONG             iM200           -71.08747    
1.568           NAV_SPEED            iM200           0.01389      
1.568           NAV_X                iM200           -1.74048     
1.568           NAV_Y                iM200           11.33890     
1.569           APPCAST              iM200           proc=iM200!@#iter=1!@#node=felix!@#iter=1!@#messages=Configuration: !@   IP address:port:             192.168.6.1:29500!@   Magnetic offset:             0.0!@   Publishing raw messages from front seat: ON!@   Maximum rudder:          +/- 100.0!@   Maximum thrust:          +/- 100.0%!@   Prefix for nav publications: NAV_!@   Command mode:                rudder-thrust!@!@  STOP                     FULL        L          C          R!@     [|                    ]   0%      [          |          ]   0%!@         DESIRED_THRUST                     DESIRED_RUDDER!@!@Info from front seat:!@   Front seat battery voltage:  0.0!@!@Status:!@   --- IVPHELM ALLSTOP ENGAGED ---!@   Requested rudder, thrust:    0.0, 0.0!@   Commanded to motors L, R:    -0.0, -0.0!@   Messages from front seat:    0!@   Messages to front seat:      1!@   Last message sent to front:  $PYDIR,-0.00000,-0.00000*!@!@   DESIRED_THRUST count:        0!@   DESIRED_RUDDER count:        0!@!@Front Seat GPS Details: !@   GPRMC:  1!@!@#!@#events_total=3!@#events=Rudder/thrust mode engaged.!@Socket open. (8)!@Connection open. (0)!@#run_warning_total=0!@# 
1.608           PSHARE_INPUT_SUMMARY pShare          localhost:9306 
1.611           APPCAST_REQ          uMAC_3847       node=all,app=all,duration=3.0,key=uMAC_3847:app,thresh=run_warning 
1.611           APPCAST_REQ_ALL      uMAC_3847       node=all,app=all,duration=3.0,key=uMAC_3847:app,thresh=run_warning 
1.621           APPCAST              uFldMessageHandler proc=uFldMessageHandler!@#iter=1!@#node=felix!@#iter=1!@#messages=Overall Totals Summary!@======================================!@   Total Received Valid: 0!@                Invalid: 0!@               Rejected: 0!@    Time since last Msg: N/A!@!@Per Source Node Summary!@======================================!@Source  Total  Elapsed  Variable  Value!@------  -----  -------  --------  -----!@!@Last Few Messages: (oldest to newest) !@======================================!@Valid Mgs: !@  NONE  !@Invalid Mgs: !@  NONE  !@Rejected Mgs: !@  NONE  !@!@#!@#events_total=0!@#!@#run_warning_total=0!@# 
1.716           DB_TIME              MOOSDB_felix    1493141560.05348 
1.716           DB_UPTIME            MOOSDB_felix    2.01538      
1.717           DB_CLIENTS           MOOSDB_felix    uFldMessageHandler,iM200,pDeadManPost,uFldNodeBroker,pHostInfo,pBasicContactMgr,pHelmIvP,pMarinePID,pNodeReporter,pLogger,pShare,uProcessWatch,uMAC_3847, 
1.719           DB_QOS               MOOSDB_felix    iM200=0:0.192881:0.192881:0,pBasicContactMgr=0:0.230074:0.190973:0,pDeadManPost=0:0.187874:0.187874:0,pHelmIvP=0:0.30303:0.152826:0,pHostInfo=0:0.211954:0.211954:0,pLogger=0:0.248909:0.182152:0,pMarinePID=0:0.233889:0.172853:0,pNodeReporter=0:0.406981:0.256062:0,pShare=0:0.28801:0.210047:0,uFldMessageHandler=0:0.154972:0.154972:0,uFldNodeBroker=0:0.187874:0.187874:0,uMAC_3847=0:0.272036:0.159979:0,uProcessWatch=0:0.221968:0.185013:0, 
1.770           IVPHELM_STATE        pHelmIvP        PARK 
1.771           NAV_HEADING          iM200           102.27000    
1.771           NAV_LAT              iM200           42.35854     
1.771           NAV_LONG             iM200           -71.08747    
1.771           NAV_SPEED            iM200           0.03035      
1.771           NAV_X                iM200           -1.76702     
1.771           NAV_Y                iM200           11.37658     
1.813           NODE_REPORT_LOCAL    pNodeReporter   NAME=felix,X=-1.77,Y=11.38,SPD=0.03,HDG=102.27,LAT=42.358538,LON=-71.08747283,TYPE=kayak,COLOR=blue,GROUP=blue,MODE=PARK,ALLSTOP=ManualOverride,INDEX=2,YAW=-0.2141519,TIME=1493141560.15,LENGTH=4 
0.812           NODE_REPORT_LOCAL_FIRST pNodeReporter   NAME=felix,TYPE=kayak,COLOR=blue,GROUP=blue,MODE=NOHELM-EVER,ALLSTOP=unknown,YAW=1.5707963,TIME=1493141559.15,LENGTH=4 
1.018           DEPLOY               pHelmIvP:HELM_VAR_INIT false 
1.018           RETURN               pHelmIvP:HELM_VAR_INIT false 
1.018           IVPHELM_DOMAIN       pHelmIvP        speed,0,2.5,26:course,0,359,360 
1.018           IVPHELM_MODESET      pHelmIvP         
1.327           UFLDNODEBROKER_ITER_LEN uFldNodeBroker  0.00006      
1.329           PHI_HOST_IP          pHostInfo       192.168.6.100 
1.329           PHI_HOST_IP_ALL      pHostInfo       192.168.6.100,192.168.6.100 
1.329           PHI_HOST_IP_VERBOSE  pHostInfo       LINUX_ETH0=192.168.6.100,LINUX_ANY=192.168.6.100 
1.329           PHI_HOST_PORT_DB     pHostInfo       9006 
1.329           PHI_HOST_INFO        pHostInfo       community=felix,hostip=192.168.6.100,port_db=9006,hostip_alts=,timewarp=1 
1.329           PHOSTINFO_ITER_LEN   pHostInfo       0.11124      
1.608           PSHARE_OUTPUT_SUMMARY pShare          NODE_BROKER_PING_0->NODE_BROKER_PING:192.168.1.155:9200, NODE_BROKER_PING_1->NODE_BROKER_PING:192.168.1.157:9200, NODE_BROKER_PING_2->NODE_BROKER_PING:192.168.1.226:9200 
1.620           UMH_SUMMARY_MSGS     uFldMessageHandler total=0,valid=0,rejected=0 
1.638           PBASICCONTACTMGR_ITER_GAP pBasicContactMgr 1.00150      
1.638           CONTACTS_RECAP       pBasicContactMgr  
1.638           PBASICCONTACTMGR_ITER_LEN pBasicContactMgr 0.00007      
1.770           PHELMIVP_ITER_GAP    pHelmIvP        1.00116      
1.770           IVPHELM_CPU          pHelmIvP        1.99099      
1.770           IVPHELM_ALLSTOP_DEBUG pHelmIvP        ManualOverride 
1.770           PHELMIVP_ITER_LEN    pHelmIvP        0.00024      
1.813           PNODEREPORTER_ITER_GAP pNodeReporter   1.00069      
1.813           PNODEREPORTER_ITER_LEN pNodeReporter   0.00032      
1.899           PDEADMANPOST_ITER_GAP pDeadManPost    1.00045      
1.899           PDEADMANPOST_ITER_LEN pDeadManPost    0.00016      
1.917           DESIRED_RUDDER       pMarinePID      0.00000      
1.917           DESIRED_THRUST       pMarinePID      0.00000      
1.922           IM200_ITER_GAP       iM200           1.00835      
1.953           UFLDMESSAGEHANDLER_ITER_LEN uFldMessageHandler 0.00010      
1.973           M200_RAW_NMEA        iM200           $GPGGA,173240.20,4221.51224,N,07105.24838,W,1,07,1.05,12.8,M,-33.2,M,,*5B 
1.974           IM200_ITER_LEN       iM200           0.51206      
1.976           UPROCESSWATCH_ITER_GAP uProcessWatch   1.00130      
1.976           PROC_WATCH_SUMMARY   uProcessWatch   All Present 
1.976           UPROCESSWATCH_ITER_LEN uProcessWatch   0.00028      
2.017           DESIRED_RUDDER       pMarinePID      0.00000      
2.017           DESIRED_THRUST       pMarinePID      0.00000      
2.020           PHELMIVP_ITER_GAP    pHelmIvP        1.00174      
2.020           IVPHELM_CPU          pHelmIvP        0.00000      
2.023           IM200_ITER_GAP       iM200           1.00322      
2.023           M200_RAW_NMEA        iM200           $GPGSA,A,3,26,16,31,23,07,27,08,,,,,,1.83,1.05,1.49*0A 
2.020           IVPHELM_STATE        pHelmIvP        PARK 
2.020           IVPHELM_ALLSTOP_DEBUG pHelmIvP        ManualOverride 
2.020           PHELMIVP_ITER_LEN    pHelmIvP        0.00022      
2.023           M200_RAW_NMEA        iM200           $GPGSV,3,1,10,04,28,058,19,07,19,300,22,08,31,189,24,09,41,297,17*77 
2.024           M200_RAW_NMEA        iM200           $GPGSV,3,2,10,16,66,034,25,21,13,066,17,23,57,244,26,26,39,057,14*75 
2.024           M200_RAW_NMEA        iM200           $GPGSV,3,3,10,27,59,153,26,31,12,111,23*73 
2.024           M200_RAW_NMEA        iM200           $GPGLL,4221.51224,N,07105.24838,W,173240.20,A,A*79 
2.024           M200_RAW_NMEA        iM200           $GPZDA,173240.20,25,04,2017,00,00*60 
2.024           IM200_ITER_LEN       iM200           0.01123      
2.117           DESIRED_RUDDER       pMarinePID      0.00000      
2.117           DESIRED_THRUST       pMarinePID      0.00000      
2.123           IM200_ITER_GAP       iM200           1.00232      
2.123           M200_RAW_NMEA        iM200           $CPNVG,173240.223,4221.512147,N,7105.24838,W,1,0,0,0,0,0,173240.203*61 
2.123           IM200_ITER_LEN       iM200           0.00374      
2.138           PBASICCONTACTMGR_ITER_GAP pBasicContactMgr 1.00028      
2.138           CONTACTS_RECAP       pBasicContactMgr  
2.138           PBASICCONTACTMGR_ITER_LEN pBasicContactMgr 0.00008      
2.149           PDEADMANPOST_ITER_GAP pDeadManPost    1.00052      
2.149           PDEADMANPOST_ITER_LEN pDeadManPost    0.00016      
2.212           APPCAST_REQ          uMAC_3847       node=all,app=all,duration=3.0,key=uMAC_3847:app,thresh=run_warning 
2.212           APPCAST_REQ_ALL      uMAC_3847       node=all,app=all,duration=3.0,key=uMAC_3847:app,thresh=run_warning 
2.217           DESIRED_RUDDER       pMarinePID      0.00000      
2.217           DESIRED_THRUST       pMarinePID      0.00000      
2.219           PHOSTINFO_ITER_LEN   pHostInfo       0.00002      
2.224           IM200_ITER_GAP       iM200           1.00547      
2.224           M200_RAW_NMEA        iM200           $GPRMC,173240.40,A,4221.51222,N,07105.24834,W,0.086,102.27,250417,,,A*7F 
2.225           M200_RAW_NMEA        iM200           $GPVTG,102.27,T,,M,0.086,N,0.159,K,A*38 
2.225           M200_RAW_NMEA        iM200           $GPGGA,173240.40,4221.51222,N,07105.24834,W,1,07,1.05,12.7,M,-33.2,M,,*58 
2.225           M200_RAW_NMEA        iM200           $GPGSA,A,3,26,16,31,23,07,27,08,,,,,,1.83,1.05,1.49*0A 
2.225           M200_RAW_NMEA        iM200           $GPGSV,3,1,10,04,28,058,18,07,19,300,22,08,31,189,24,09,41,297,17*76 
2.225           M200_RAW_NMEA        iM200           $GPGSV,3,2,10,16,66,034,25,21,13,066,17,23,57,244,26,26,39,057,14*75 
2.225           M200_RAW_NMEA        iM200           $GPGSV,3,3,10,27,59,153,26,31,12,111,23*73 
2.225           M200_RAW_NMEA        iM200           $GPGLL,4221.51222,N,07105.24834,W,173240.40,A,A*75 
2.225           M200_RAW_NMEA        iM200           $GPZDA,173240.40,25,04,2017,00,00*66 
2.225           NAV_HEADING          iM200           102.27000    
2.225           NAV_LAT              iM200           42.35854     
2.225           NAV_LONG             iM200           -71.08747    
2.226           NAV_SPEED            iM200           0.04424      
2.226           NAV_X                iM200           -1.72857     
2.226           NAV_Y                iM200           11.26453     
2.226           IM200_ITER_LEN       iM200           0.01939      
2.271           PHELMIVP_ITER_GAP    pHelmIvP        1.00106      
2.271           IVPHELM_CPU          pHelmIvP        0.00000      
2.271           IVPHELM_STATE        pHelmIvP        PARK 
2.271           IVPHELM_ALLSTOP_DEBUG pHelmIvP        ManualOverride 
2.271           PHELMIVP_ITER_LEN    pHelmIvP        0.00026      
2.286           UFLDMESSAGEHANDLER_ITER_LEN uFldMessageHandler 0.00005      
2.313           PNODEREPORTER_ITER_GAP pNodeReporter   1.00072      
2.313           NODE_REPORT_LOCAL    pNodeReporter   NAME=felix,X=-1.73,Y=11.26,SPD=0.04,HDG=102.27,LAT=42.358537,LON=-71.08747233,TYPE=kayak,COLOR=blue,GROUP=blue,MODE=PARK,ALLSTOP=ManualOverride,INDEX=3,YAW=-0.2141519,TIME=1493141560.65,LENGTH=4 
2.313           PNODEREPORTER_ITER_LEN pNodeReporter   0.00032      
2.318           DESIRED_RUDDER       pMarinePID      0.00000      
2.318           DESIRED_THRUST       pMarinePID      0.00000      
2.324           IM200_ITER_GAP       iM200           1.00046      
2.324           M200_RAW_NMEA        iM200           $CPNVG,173240.476,4221.512127,N,7105.24834,W,1,0,0,0,0,0,173240.415*6C 
2.324           IM200_ITER_LEN       iM200           0.00360      
2.328           PSHARE_CMD           uFldNodeBroker  cmd=output,src_name=NODE_BROKER_PING_0,dest_name=NODE_BROKER_PING,route=192.168.1.155:9200 
2.328           PSHARE_CMD           uFldNodeBroker  cmd=output,src_name=NODE_BROKER_PING_1,dest_name=NODE_BROKER_PING,route=192.168.1.157:9200 
2.328           PSHARE_CMD           uFldNodeBroker  cmd=output,src_name=NODE_BROKER_PING_2,dest_name=NODE_BROKER_PING,route=192.168.1.226:9200 
2.328           UFLDNODEBROKER_ITER_LEN uFldNodeBroker  0.00016      
2.399           PDEADMANPOST_ITER_GAP pDeadManPost    1.00082      
2.399           PDEADMANPOST_ITER_LEN pDeadManPost    0.00009      
2.418           DESIRED_RUDDER       pMarinePID      0.00000      
2.418           DESIRED_THRUST       pMarinePID      0.00000      
2.424           IM200_ITER_GAP       iM200           1.00527      
2.425           M200_RAW_NMEA        iM200           $GPRMC,173240.60,A,4221.51224,N,07105.24829,W,0.180,102.27,250417,,,A*70 
2.425           M200_RAW_NMEA        iM200           $GPVTG,102.27,T,,M,0.180,N,0.334,K,A*36 
2.425           M200_RAW_NMEA        iM200           $GPGGA,173240.60,4221.51224,N,07105.24829,W,1,07,1.05,12.6,M,-33.2,M,,*51 
2.426           M200_RAW_NMEA        iM200           $GPGSA,A,3,26,16,31,23,07,27,08,,,,,,1.83,1.05,1.49*0A 
2.426           M200_RAW_NMEA        iM200           $GPGSV,3,1,10,04,28,058,19,07,19,300,22,08,31,189,24,09,41,297,18*78 
2.426           M200_RAW_NMEA        iM200           $GPGSV,3,2,10,16,66,034,25,21,13,066,17,23,57,244,26,26,39,057,14*75 
2.426           M200_RAW_NMEA        iM200           $GPGSV,3,3,10,27,59,153,27,31,12,111,24*75 
2.426           M200_RAW_NMEA        iM200           $GPGLL,4221.51224,N,07105.24829,W,173240.60,A,A*7D 
2.426           M200_RAW_NMEA        iM200           $GPZDA,173240.60,25,04,2017,00,00*64 
2.427           NAV_HEADING          iM200           102.27000    
2.427           NAV_LAT              iM200           42.35854     
2.427           NAV_LONG             iM200           -71.08747    
2.427           NAV_SPEED            iM200           0.09260      
2.427           NAV_X                iM200           -1.65903     
2.427           NAV_Y                iM200           11.29986     
2.427           IM200_ITER_LEN       iM200           0.02592      
2.476           UPROCESSWATCH_ITER_GAP uProcessWatch   1.00087      
2.476           UPROCESSWATCH_ITER_LEN uProcessWatch   0.00003      
2.518           DESIRED_RUDDER       pMarinePID      0.00000      
2.518           DESIRED_THRUST       pMarinePID      0.00000      
2.521           PHELMIVP_ITER_GAP    pHelmIvP        1.00172      
2.521           IVPHELM_CPU          pHelmIvP        0.00000      
2.521           IVPHELM_STATE        pHelmIvP        PARK 
2.521           IVPHELM_ALLSTOP_DEBUG pHelmIvP        ManualOverride 
2.521           PHELMIVP_ITER_LEN    pHelmIvP        0.00022      
2.525           IM200_ITER_GAP       iM200           1.00851      
2.573           M200_RAW_NMEA        iM200           $GPRMC,173240.80,A,4221.51225,N,07105.24833,W,0.130,102.27,250417,,,A*7F 
2.573           NAV_HEADING          iM200           102.27000    
2.573           NAV_LAT              iM200           42.35854     
2.573           NAV_LONG             iM200           -71.08747    
2.573           NAV_SPEED            iM200           0.06688      
2.573           NAV_X                iM200           -1.71348     
2.573           NAV_Y                iM200           11.31971     
2.573           IM200_ITER_LEN       iM200           0.48276      
2.618           PSHARE_OUTPUT_SUMMARY pShare          NODE_BROKER_PING_0->NODE_BROKER_PING:192.168.1.155:9200, NODE_BROKER_PING_1->NODE_BROKER_PING:192.168.1.157:9200, NODE_BROKER_PING_2->NODE_BROKER_PING:192.168.1.226:9200 
2.618           PSHARE_INPUT_SUMMARY pShare          localhost:9306 
2.618           DESIRED_RUDDER       pMarinePID      0.00000      
2.618           DESIRED_THRUST       pMarinePID      0.00000      
2.619           UFLDMESSAGEHANDLER_ITER_LEN uFldMessageHandler 0.00010      
2.626           IM200_ITER_GAP       iM200           1.00511      
2.626           M200_RAW_NMEA        iM200           $GPVTG,102.27,T,,M,0.130,N,0.241,K,A*3E 
2.626           M200_RAW_NMEA        iM200           $GPGGA,173240.80,4221.51225,N,07105.24833,W,1,07,1.05,12.6,M,-33.2,M,,*55 
2.627           M200_RAW_NMEA        iM200           $GPGSA,A,3,26,16,31,23,07,27,08,,,,,,1.83,1.05,1.49*0A 
2.627           M200_RAW_NMEA        iM200           $GPGSV,3,1,10,04,28,058,19,07,19,300,22,08,31,189,24,09,41,297,18*78 
2.627           M200_RAW_NMEA        iM200           $GPGSV,3,2,10,16,66,034,25,21,13,066,17,23,57,244,26,26,39,057,14*75 
2.627           M200_RAW_NMEA        iM200           $GPGSV,3,3,10,27,59,153,27,31,12,111,23*72 
2.627           M200_RAW_NMEA        iM200           $GPGLL,4221.51225,N,07105.24833,W,173240.80,A,A*79 
2.628           M200_RAW_NMEA        iM200           $CPNVG,173240.822,4221.512157,N,7105.24833,W,1,0,0,0,0,0,173240.805*6C 
2.628           IM200_ITER_LEN       iM200           0.02111      
2.638           PBASICCONTACTMGR_ITER_GAP pBasicContactMgr 1.00046      
2.638           CONTACTS_RECAP       pBasicContactMgr  
2.638           PBASICCONTACTMGR_ITER_LEN pBasicContactMgr 0.00006      
2.649           PDEADMANPOST_ITER_GAP pDeadManPost    1.00045      
2.649           PDEADMANPOST_ITER_LEN pDeadManPost    0.00014      
2.719           DESIRED_RUDDER       pMarinePID      0.00000      
2.719           DESIRED_THRUST       pMarinePID      0.00000      
2.726           IM200_ITER_GAP       iM200           1.00225      
2.726           M200_RAW_NMEA        iM200           $CPRBS,173240.875,15.398013,15.398013,15.398013,0*71 
2.726           IM200_ITER_LEN       iM200           0.00633      
2.771           PHELMIVP_ITER_GAP    pHelmIvP        1.00082      
2.771           IVPHELM_CPU          pHelmIvP        0.00000      
2.771           IVPHELM_STATE        pHelmIvP        PARK 
2.771           IVPHELM_ALLSTOP_DEBUG pHelmIvP        ManualOverride 
2.771           PHELMIVP_ITER_LEN    pHelmIvP        0.00027      
2.813           APPCAST_REQ          uMAC_3847       node=all,app=all,duration=3.0,key=uMAC_3847:app,thresh=run_warning 
2.813           APPCAST_REQ_ALL      uMAC_3847       node=all,app=all,duration=3.0,key=uMAC_3847:app,thresh=run_warning 
2.814           PNODEREPORTER_ITER_GAP pNodeReporter   1.00109      
2.819           DESIRED_RUDDER       pMarinePID      0.00000      
2.819           DESIRED_THRUST       pMarinePID      0.00000      
2.827           IM200_ITER_GAP       iM200           1.00886      
2.827           M200_RAW_NMEA        iM200           $GPRMC,173241.00,A,4221.51223,N,07105.24832,W,0.131,102.27,250417,,,A*70 
2.814           NODE_REPORT_LOCAL    pNodeReporter   NAME=felix,X=-1.71,Y=11.32,SPD=0.07,HDG=102.27,LAT=42.3585375,LON=-71.08747217,TYPE=kayak,COLOR=blue,GROUP=blue,MODE=PARK,ALLSTOP=ManualOverride,INDEX=4,YAW=-0.2141519,TIME=1493141561.15,LENGTH=4 
2.814           PNODEREPORTER_ITER_LEN pNodeReporter   0.00032      
2.828           M200_RAW_NMEA        iM200           $GPVTG,102.27,T,,M,0.131,N,0.243,K,A*3D 
2.828           M200_RAW_NMEA        iM200           $GPGGA,173241.00,4221.51223,N,07105.24832,W,1,07,1.05,12.6,M,-33.2,M,,*5B 
2.828           M200_RAW_NMEA        iM200           $GPGSA,A,3,26,16,31,23,07,27,08,,,,,,1.83,1.05,1.49*0A 
2.828           M200_RAW_NMEA        iM200           $GPGSV,3,1,10,04,28,058,19,07,19,300,22,08,31,189,24,09,41,297,18*78 
2.828           M200_RAW_NMEA        iM200           $GPGSV,3,2,10,16,66,034,25,21,13,066,17,23,57,244,26,26,39,057,14*75 
2.828           M200_RAW_NMEA        iM200           $GPGSV,3,3,10,27,59,153,26,31,12,111,24*74 
2.828           M200_RAW_NMEA        iM200           $GPGLL,4221.51223,N,07105.24832,W,173241.00,A,A*77 
2.828           M200_RAW_NMEA        iM200           $GPZDA,173241.00,25,04,2017,00,00*63 
2.829           NAV_HEADING          iM200           102.27000    
2.829           NAV_LAT              iM200           42.35854     
2.829           NAV_LONG             iM200           -71.08747    
2.829           NAV_SPEED            iM200           0.06739      
2.829           NAV_X                iM200           -1.70067     
2.829           NAV_Y                iM200           11.28236     
2.829           IM200_ITER_LEN       iM200           0.01972      
2.900           PDEADMANPOST_ITER_GAP pDeadManPost    1.00082      
2.900           PDEADMANPOST_ITER_LEN pDeadManPost    0.00009      
2.919           DESIRED_RUDDER       pMarinePID      0.00000      
2.919           DESIRED_THRUST       pMarinePID      0.00000      
2.927           IM200_ITER_GAP       iM200           1.00085      
2.927           M200_RAW_NMEA        iM200           $CPNVG,173241.022,4221.512137,N,7105.24832,W,1,0,0,0,0,0,173241.003*6D 
2.927           IM200_ITER_LEN       iM200           0.00395      
2.952           UFLDMESSAGEHANDLER_ITER_LEN uFldMessageHandler 0.00010      
2.977           UPROCESSWATCH_ITER_GAP uProcessWatch   1.00188      
2.977           UPROCESSWATCH_ITER_LEN uProcessWatch   0.00007      
3.020           DESIRED_RUDDER       pMarinePID      0.00000      
3.020           DESIRED_THRUST       pMarinePID      0.00000      
3.022           PHELMIVP_ITER_GAP    pHelmIvP        1.00422      
3.027           IM200_ITER_GAP       iM200           1.00531      
3.028           M200_RAW_NMEA        iM200           $GPRMC,173241.20,A,4221.51225,N,07105.24833,W,0.128,102.27,250417,,,A*7D 
1.976           PROC_WATCH_FULL_SUMMARY uProcessWatch   pShare(1/0),pHelmIvP(1/0),pMarinePID(1/0),pNodeReporter(1/0),uFldMessageHandler(1/0),iM200(1/0),pDeadManPost(1/0),uFldNodeBroker(1/0),pHostInfo(1/0),pBasicContactMgr(1/0),pLogger(1/0) 
2.219           PHOSTINFO_ITER_GAP   pHostInfo       1.00071      
2.328           UFLDNODEBROKER_ITER_GAP uFldNodeBroker  1.00102      
2.726           M200_BATT_VOLTAGE    iM200           15.39801     
2.952           UFLDMESSAGEHANDLER_ITER_GAP uFldMessageHandler 0.99978      
3.022           IVPHELM_CPU          pHelmIvP        0.00000      
3.022           IVPHELM_STATE        pHelmIvP        PARK 
3.022           IVPHELM_ALLSTOP_DEBUG pHelmIvP        ManualOverride 
3.022           PHELMIVP_ITER_LEN    pHelmIvP        0.00032      
3.029           M200_RAW_NMEA        iM200           $GPVTG,102.27,T,,M,0.128,N,0.236,K,A*37 
3.029           M200_RAW_NMEA        iM200           $GPGSA,A,3,26,16,31,23,07,27,08,,,,,,1.83,1.05,1.49*0A 
3.029           M200_RAW_NMEA        iM200           $GPGSV,3,1,10,04,28,058,19,07,19,300,22,08,31,189,24,09,41,297,19*79 
3.030           M200_RAW_NMEA        iM200           $GPGSV,3,2,10,16,66,034,25,21,13,066,17,23,57,244,26,26,39,057,14*75 
3.030           M200_RAW_NMEA        iM200           $GPGSV,3,3,10,27,59,153,26,31,12,111,24*74 
3.030           M200_RAW_NMEA        iM200           $GPGLL,4221.51225,N,07105.24833,W,173241.20,A,A*72 
3.030           M200_RAW_NMEA        iM200           $GPZDA,173241.20,25,04,2017,00,00*61 
3.030           NAV_HEADING          iM200           102.27000    
3.030           NAV_LAT              iM200           42.35854     
3.030           NAV_LONG             iM200           -71.08747    
3.030           NAV_SPEED            iM200           0.06585      
3.030           NAV_X                iM200           -1.71348     
3.030           NAV_Y                iM200           11.31971     
3.030           IM200_ITER_LEN       iM200           0.03070      
3.120           MOOS_DEBUG           pMarinePID      Paused Due To Tardy HELM Input: THRUST=0 
3.120           DESIRED_THRUST       pMarinePID      0.00000      
3.127           IM200_ITER_GAP       iM200           1.00224      
3.128           M200_RAW_NMEA        iM200           $CPNVG,173241.223,4221.512157,N,7105.24833,W,1,0,0,0,0,0,173241.205*6D 
3.128           IM200_ITER_LEN       iM200           0.00700      
3.139           PBASICCONTACTMGR_ITER_GAP pBasicContactMgr 1.00093      
3.139           CONTACTS_RECAP       pBasicContactMgr  
3.139           PBASICCONTACTMGR_ITER_LEN pBasicContactMgr 0.00007      
3.150           PDEADMANPOST_ITER_GAP pDeadManPost    1.00052      
3.150           PDEADMANPOST_ITER_LEN pDeadManPost    0.00021      
3.220           PHOSTINFO_ITER_GAP   pHostInfo       1.00071      
3.220           PHOSTINFO_ITER_LEN   pHostInfo       0.00002      
3.220           DESIRED_THRUST       pMarinePID      0.00000      
3.228           IM200_ITER_GAP       iM200           1.00975      
3.229           M200_RAW_NMEA        iM200           $GPRMC,173241.40,A,4221.51224,N,07105.24834,W,0.133,102.27,250417,,,A*77 
3.231           M200_RAW_NMEA        iM200           $GPVTG,102.27,T,,M,0.133,N,0.246,K,A*3A 
3.231           M200_RAW_NMEA        iM200           $GPGGA,173241.40,4221.51224,N,07105.24834,W,1,07,1.05,12.5,M,-33.2,M,,*5D 
3.233           M200_RAW_NMEA        iM200           $GPGSA,A,3,26,16,31,23,07,27,08,,,,,,1.83,1.05,1.49*0A 
3.234           M200_RAW_NMEA        iM200           $GPGSV,3,1,10,04,28,058,19,07,19,300,22,08,31,189,24,09,41,297,19*79 
3.235           M200_RAW_NMEA        iM200           $GPGSV,3,2,10,16,66,034,25,21,13,066,17,23,57,244,26,26,39,057,14*75 
3.236           M200_RAW_NMEA        iM200           $GPGSV,3,3,10,27,59,153,27,31,12,111,24*75 
3.237           M200_RAW_NMEA        iM200           $GPGLL,4221.51224,N,07105.24834,W,173241.40,A,A*72 
3.237           M200_RAW_NMEA        iM200           $GPZDA,173241.40,25,04,2017,00,00*67 
3.238           NAV_HEADING          iM200           102.27000    
3.238           NAV_LAT              iM200           42.35854     
3.238           NAV_LONG             iM200           -71.08747    
3.238           NAV_SPEED            iM200           0.06842      
3.238           NAV_X                iM200           -1.72766     
3.238           NAV_Y                iM200           11.30154     
3.240           IM200_ITER_LEN       iM200           0.11019      
3.273           PHELMIVP_ITER_GAP    pHelmIvP        1.00132      
3.273           IVPHELM_CPU          pHelmIvP        0.00000      
3.273           IVPHELM_STATE        pHelmIvP        PARK 
3.273           IVPHELM_ALLSTOP_DEBUG pHelmIvP        ManualOverride 
3.273           PHELMIVP_ITER_LEN    pHelmIvP        0.00051      
3.286           UFLDMESSAGEHANDLER_ITER_GAP uFldMessageHandler 0.99944      
3.286           UFLDMESSAGEHANDLER_ITER_LEN uFldMessageHandler 0.00023      
3.314           PNODEREPORTER_ITER_GAP pNodeReporter   1.00104      
3.315           NODE_REPORT_LOCAL    pNodeReporter   NAME=felix,X=-1.73,Y=11.3,SPD=0.07,HDG=102.27,LAT=42.35853733,LON=-71.08747233,TYPE=kayak,COLOR=blue,GROUP=blue,MODE=PARK,ALLSTOP=ManualOverride,INDEX=5,YAW=-0.2141519,TIME=1493141561.65,LENGTH=4 
3.315           PNODEREPORTER_ITER_LEN pNodeReporter   0.00055      
3.320           DESIRED_THRUST       pMarinePID      0.00000      
3.329           IM200_ITER_GAP       iM200           1.00223      
3.329           M200_RAW_NMEA        iM200           $CPNVG,173241.473,4221.512147,N,7105.24834,W,1,0,0,0,0,0,173241.409*62 
3.329           IM200_ITER_LEN       iM200           0.00534      
3.328           UFLDNODEBROKER_ITER_GAP uFldNodeBroker  1.00056      
3.328           PSHARE_CMD           uFldNodeBroker  cmd=output,src_name=NODE_BROKER_PING_0,dest_name=NODE_BROKER_PING,route=192.168.1.155:9200 
3.328           PSHARE_CMD           uFldNodeBroker  cmd=output,src_name=NODE_BROKER_PING_1,dest_name=NODE_BROKER_PING,route=192.168.1.157:9200 
3.328           PSHARE_CMD           uFldNodeBroker  cmd=output,src_name=NODE_BROKER_PING_2,dest_name=NODE_BROKER_PING,route=192.168.1.226:9200 
3.328           UFLDNODEBROKER_ITER_LEN uFldNodeBroker  0.00014      
3.400           PDEADMANPOST_ITER_GAP pDeadManPost    1.00149      
3.400           PDEADMANPOST_ITER_LEN pDeadManPost    0.00008      
3.413           APPCAST_REQ          uMAC_3847       node=all,app=all,duration=3.0,key=uMAC_3847:app,thresh=run_warning 
3.413           APPCAST_REQ_ALL      uMAC_3847       node=all,app=all,duration=3.0,key=uMAC_3847:app,thresh=run_warning 
3.421           DESIRED_THRUST       pMarinePID      0.00000      
3.429           IM200_ITER_GAP       iM200           1.00803      
3.430           M200_RAW_NMEA        iM200           $GPRMC,173241.60,A,4221.51224,N,07105.24831,W,0.183,102.27,250417,,,A*7B 
3.431           M200_RAW_NMEA        iM200           $GPVTG,102.27,T,,M,0.183,N,0.339,K,A*38 
3.431           M200_RAW_NMEA        iM200           $GPGGA,173241.60,4221.51224,N,07105.24831,W,1,07,1.05,12.5,M,-33.2,M,,*5A 
3.432           M200_RAW_NMEA        iM200           $GPGSA,A,3,26,16,31,23,07,27,08,,,,,,1.83,1.05,1.49*0A 
3.432           M200_RAW_NMEA        iM200           $GPGSV,3,1,10,04,28,058,19,07,19,300,22,08,31,189,24,09,41,297,19*79 
3.432           M200_RAW_NMEA        iM200           $GPGSV,3,2,10,16,66,034,25,21,13,066,17,23,57,244,26,26,39,057,14*75 
3.432           M200_RAW_NMEA        iM200           $GPGSV,3,3,10,27,59,153,26,31,12,111,24*74 
3.433           M200_RAW_NMEA        iM200           $GPGLL,4221.51224,N,07105.24831,W,173241.60,A,A*75 
3.433           M200_RAW_NMEA        iM200           $GPZDA,173241.60,25,04,2017,00,00*65 
3.433           NAV_HEADING          iM200           102.27000    
3.433           NAV_LONG             iM200           -71.08747    
3.433           NAV_SPEED            iM200           0.09414      
3.433           NAV_X                iM200           -1.68649     
3.433           NAV_Y                iM200           11.30053     
3.433           IM200_ITER_LEN       iM200           0.03588      
3.478           UPROCESSWATCH_ITER_GAP uProcessWatch   1.00210      
3.478           UPROCESSWATCH_ITER_LEN uProcessWatch   0.00008      
3.521           DESIRED_THRUST       pMarinePID      0.00000      
3.523           PHELMIVP_ITER_GAP    pHelmIvP        1.00343      
3.523           IVPHELM_CPU          pHelmIvP        1.99928      
3.523           IVPHELM_STATE        pHelmIvP        PARK 
3.523           IVPHELM_ALLSTOP_DEBUG pHelmIvP        ManualOverride 
3.524           PHELMIVP_ITER_LEN    pHelmIvP        0.00037      
3.530           IM200_ITER_GAP       iM200           1.00964      
3.569           M200_RAW_NMEA        iM200           $GPRMC,173241.80,A,4221.51228,N,07105.24834,W,0.202,102.27,250417,,,A*76 
3.570           NAV_HEADING          iM200           102.27000    
3.570           NAV_LAT              iM200           42.35854     
3.570           NAV_LONG             iM200           -71.08747    
3.570           NAV_SPEED            iM200           0.10392      
3.570           NAV_X                iM200           -1.72585     
3.570           NAV_Y                iM200           11.37557     
3.570           IM200_ITER_LEN       iM200           0.39439      
3.619           PSHARE_OUTPUT_SUMMARY pShare          NODE_BROKER_PING_0->NODE_BROKER_PING:192.168.1.155:9200, NODE_BROKER_PING_1->NODE_BROKER_PING:192.168.1.157:9200, NODE_BROKER_PING_2->NODE_BROKER_PING:192.168.1.226:9200 
3.619           PSHARE_INPUT_SUMMARY pShare          localhost:9306 
3.619           UFLDMESSAGEHANDLER_ITER_GAP uFldMessageHandler 1.00000      
3.619           UFLDMESSAGEHANDLER_ITER_LEN uFldMessageHandler 0.00011      
3.621           DESIRED_THRUST       pMarinePID      0.00000      
3.631           IM200_ITER_GAP       iM200           1.00743      
3.632           M200_RAW_NMEA        iM200           $GPVTG,102.27,T,,M,0.202,N,0.374,K,A*3B 
3.632           M200_RAW_NMEA        iM200           $GPGGA,173241.80,4221.51228,N,07105.24834,W,1,07,1.05,12.3,M,-33.2,M,,*5B 
3.633           M200_RAW_NMEA        iM200           $GPGSA,A,3,26,16,31,23,07,27,08,,,,,,1.83,1.05,1.49*0A 
3.633           M200_RAW_NMEA        iM200           $GPGSV,3,1,10,04,28,058,19,07,19,300,22,08,31,189,24,09,41,297,18*78 
3.634           M200_RAW_NMEA        iM200           $GPGSV,3,2,10,16,66,034,25,21,13,066,17,23,57,244,26,26,39,057,14*75 
3.634           M200_RAW_NMEA        iM200           $GPGSV,3,3,10,27,59,153,26,31,12,111,23*73 
3.634           M200_RAW_NMEA        iM200           $GPGLL,4221.51228,N,07105.24834,W,173241.80,A,A*72 
3.635           M200_RAW_NMEA        iM200           $GPZDA,173241.80,25,04,2017,00,00*6B 
3.635           M200_RAW_NMEA        iM200           $CPNVG,173241.821,4221.512187,N,7105.24834,W,1,0,0,0,0,0,173241.802*62 
3.635           IM200_ITER_LEN       iM200           0.04104      
3.639           PBASICCONTACTMGR_ITER_GAP pBasicContactMgr 1.00065      
3.639           CONTACTS_RECAP       pBasicContactMgr  
3.639           PBASICCONTACTMGR_ITER_LEN pBasicContactMgr 0.00010      
3.650           PDEADMANPOST_ITER_GAP pDeadManPost    1.00106      
3.650           PDEADMANPOST_ITER_LEN pDeadManPost    0.00013      
3.721           DESIRED_THRUST       pMarinePID      0.00000      
3.722           DB_TIME              MOOSDB_felix    1493141562.05875 
3.722           DB_UPTIME            MOOSDB_felix    4.02065      
3.722           DB_CLIENTS           MOOSDB_felix    uFldMessageHandler,iM200,pDeadManPost,uFldNodeBroker,pHostInfo,pBasicContactMgr,pHelmIvP,pMarinePID,pNodeReporter,pLogger,pShare,uProcessWatch,uMAC_3847, 
3.727           DB_QOS               MOOSDB_felix    iM200=0:0.273943:0.161171:0,pBasicContactMgr=0:0.257015:0.138998:0,pDeadManPost=0:0.187874:0.1719:0,pHelmIvP=0:0.30303:0.140905:0,pHostInfo=0:0.47183:0.130892:0,pLogger=0:0.272036:0.118971:0,pMarinePID=0:0.244856:0.136137:0,pNodeReporter=0:0.406981:0.150919:0,pShare=0:8.43287:0.210047:0,uFldMessageHandler=0:0.921011:0.154972:0,uFldNodeBroker=0:0.244141:0.139952:0,uMAC_3847=0:0.272036:0.145912:0,uProcessWatch=0:0.319958:0.167847:0, 
3.731           IM200_ITER_GAP       iM200           1.00262      
3.774           PHELMIVP_ITER_GAP    pHelmIvP        1.00126      
3.774           IVPHELM_CPU          pHelmIvP        1.99928      
3.774           IVPHELM_STATE        pHelmIvP        PARK 
3.774           IVPHELM_ALLSTOP_DEBUG pHelmIvP        ManualOverride 
3.774           PHELMIVP_ITER_LEN    pHelmIvP        0.00044      
3.776           M200_RAW_NMEA        iM200           $GPRMC,173242.00,A,4221.51230,N,07105.24832,W,0.226,102.27,250417,,,A*74 
3.777           NAV_HEADING          iM200           102.27000    
3.777           NAV_LAT              iM200           42.35854     
3.777           NAV_LONG             iM200           -71.08747    
3.777           NAV_SPEED            iM200           0.11626      
3.777           NAV_X                iM200           -1.69749     
3.777           NAV_Y                iM200           11.41191     
3.777           IM200_ITER_LEN       iM200           0.45443      
3.815           PNODEREPORTER_ITER_GAP pNodeReporter   1.00131      
3.815           NODE_REPORT_LOCAL    pNodeReporter   NAME=felix,X=-1.7,Y=11.41,SPD=0.12,HDG=102.27,LAT=42.35853833,LON=-71.087472,TYPE=kayak,COLOR=blue,GROUP=blue,MODE=PARK,ALLSTOP=ManualOverride,INDEX=6,YAW=-0.2141519,TIME=1493141562.15,LENGTH=4 
3.815           PNODEREPORTER_ITER_LEN pNodeReporter   0.00056      
3.822           DESIRED_THRUST       pMarinePID      0.00000      
3.832           IM200_ITER_GAP       iM200           1.00836      
3.833           M200_RAW_NMEA        iM200           $GPVTG,102.27,T,,M,0.226,N,0.418,K,A*30 
3.833           M200_RAW_NMEA        iM200           $GPGGA,173242.00,4221.51230,N,07105.24832,W,1,07,1.05,12.3,M,-33.2,M,,*5F 
3.834           M200_RAW_NMEA        iM200           $GPGSA,A,3,26,16,31,23,07,27,08,,,,,,1.83,1.05,1.49*0A 
3.834           M200_RAW_NMEA        iM200           $GPGSV,3,1,10,04,28,058,20,07,19,300,22,08,31,189,24,09,41,297,19*73 
3.835           M200_RAW_NMEA        iM200           $GPGSV,3,2,10,16,66,034,25,21,13,066,17,23,57,244,26,26,39,057,14*75 
3.835           M200_RAW_NMEA        iM200           $GPGSV,3,3,10,27,59,153,27,31,12,111,23*72 
3.835           M200_RAW_NMEA        iM200           $GPGLL,4221.51230,N,07105.24832,W,173242.00,A,A*76 
3.836           M200_RAW_NMEA        iM200           $GPZDA,173242.00,25,04,2017,00,00*60 
3.836           IM200_ITER_LEN       iM200           0.03746      
3.900           PDEADMANPOST_ITER_GAP pDeadManPost    1.00061      
3.901           PDEADMANPOST_ITER_LEN pDeadManPost    0.00023      
3.922           DESIRED_THRUST       pMarinePID      0.00000      
3.933           IM200_ITER_GAP       iM200           1.00898      
3.934           M200_RAW_NMEA        iM200           $CPNVG,173242.073,4221.512207,N,7105.24832,W,1,0,0,0,0,0,173242.006*6C 
3.934           IM200_ITER_LEN       iM200           0.00882      
3.952           UFLDMESSAGEHANDLER_ITER_GAP uFldMessageHandler 1.00007      
3.952           UFLDMESSAGEHANDLER_ITER_LEN uFldMessageHandler 0.00006      
3.979           UPROCESSWATCH_ITER_GAP uProcessWatch   1.00228      
3.979           UPROCESSWATCH_ITER_LEN uProcessWatch   0.00008      
4.014           APPCAST_REQ          uMAC_3847       node=all,app=all,duration=3.0,key=uMAC_3847:app,thresh=run_warning 
4.014           APPCAST_REQ_ALL      uMAC_3847       node=all,app=all,duration=3.0,key=uMAC_3847:app,thresh=run_warning 
4.022           DESIRED_THRUST       pMarinePID      0.00000      
4.025           PHELMIVP_ITER_GAP    pHelmIvP        1.00333      
4.025           IVPHELM_CPU          pHelmIvP        0.00000      
4.034           IM200_ITER_GAP       iM200           1.01139      
4.035           M200_RAW_NMEA        iM200           $GPRMC,173242.20,A,4221.51229,N,07105.24831,W,0.211,102.27,250417,,,A*79 
4.036           M200_RAW_NMEA        iM200           $GPVTG,102.27,T,,M,0.211,N,0.390,K,A*33 
4.025           IVPHELM_STATE        pHelmIvP        PARK 
4.025           IVPHELM_ALLSTOP_DEBUG pHelmIvP        ManualOverride 
4.025           PHELMIVP_ITER_LEN    pHelmIvP        0.00038      
4.036           M200_RAW_NMEA        iM200           $GPGGA,173242.20,4221.51229,N,07105.24831,W,1,07,1.05,12.2,M,-33.2,M,,*57 
4.037           M200_RAW_NMEA        iM200           $GPGSA,A,3,26,16,31,23,07,27,08,,,,,,1.83,1.05,1.49*0A 
4.037           M200_RAW_NMEA        iM200           $GPGSV,3,1,10,04,28,058,20,07,19,300,22,08,31,189,24,09,41,297,18*72 
4.037           M200_RAW_NMEA        iM200           $GPGSV,3,2,10,16,66,034,25,21,13,066,17,23,57,244,26,26,39,057,14*75 
4.038           M200_RAW_NMEA        iM200           $GPGSV,3,3,10,27,59,153,27,31,12,111,23*72 
4.038           M200_RAW_NMEA        iM200           $GPGLL,4221.51229,N,07105.24831,W,173242.20,A,A*7F 
4.038           NAV_HEADING          iM200           102.27000    
4.038           NAV_LAT              iM200           42.35854     
4.038           NAV_LONG             iM200           -71.08747    
4.038           NAV_SPEED            iM200           0.10855      
4.038           NAV_X                iM200           -1.68421     
4.038           NAV_Y                iM200           11.39307     
4.038           IM200_ITER_LEN       iM200           0.03646      
4.122           DESIRED_THRUST       pMarinePID      0.00000      
4.135           IM200_ITER_GAP       iM200           1.00799      
4.139           PBASICCONTACTMGR_ITER_GAP pBasicContactMgr 1.00067      
4.139           CONTACTS_RECAP       pBasicContactMgr  
4.151           PDEADMANPOST_ITER_GAP pDeadManPost    1.00118      
4.151           PDEADMANPOST_ITER_LEN pDeadManPost    0.00013      
4.139           PBASICCONTACTMGR_ITER_LEN pBasicContactMgr 0.00010      
4.181           M200_RAW_NMEA        iM200           $GPRMC,173242.40,A,4221.51229,N,07105.24828,W,0.214,102.27,250417,,,A*72 
4.182           NAV_HEADING          iM200           102.27000    
4.182           NAV_LONG             iM200           -71.08747    
4.182           NAV_SPEED            iM200           0.11009      
4.182           NAV_X                iM200           -1.64304     
4.182           NAV_Y                iM200           11.39206     
4.182           IM200_ITER_LEN       iM200           0.46954      
4.220           PHOSTINFO_ITER_GAP   pHostInfo       1.00040      
4.220           PHOSTINFO_ITER_LEN   pHostInfo       0.00004      
4.223           DESIRED_THRUST       pMarinePID      0.00000      
4.235           IM200_ITER_GAP       iM200           1.00355      
4.236           M200_RAW_NMEA        iM200           $GPVTG,102.27,T,,M,0.214,N,0.397,K,A*31 
4.237           M200_RAW_NMEA        iM200           $GPGGA,173242.40,4221.51229,N,07105.24828,W,1,07,1.05,12.1,M,-33.2,M,,*5A 
4.237           M200_RAW_NMEA        iM200           $GPGSA,A,3,26,16,31,23,07,27,08,,,,,,1.83,1.05,1.49*0A 
4.238           M200_RAW_NMEA        iM200           $GPGSV,3,1,10,04,28,058,20,07,19,300,22,08,31,189,24,09,41,297,18*72 
4.238           M200_RAW_NMEA        iM200           $GPGSV,3,2,10,16,66,034,26,21,13,066,17,23,57,244,26,26,39,057,14*76 
4.239           M200_RAW_NMEA        iM200           $GPGSV,3,3,10,27,59,153,27,31,12,111,22*73 
4.239           M200_RAW_NMEA        iM200           $GPGLL,4221.51229,N,07105.24828,W,173242.40,A,A*71 
4.239           M200_RAW_NMEA        iM200           $GPZDA,173242.40,25,04,2017,00,00*64 
4.239           IM200_ITER_LEN       iM200           0.03748      
4.275           PHELMIVP_ITER_GAP    pHelmIvP        1.00144      
4.275           IVPHELM_CPU          pHelmIvP        0.00000      
4.275           IVPHELM_STATE        pHelmIvP        PARK 
4.275           IVPHELM_ALLSTOP_DEBUG pHelmIvP        ManualOverride 
4.275           PHELMIVP_ITER_LEN    pHelmIvP        0.00055      
4.286           UFLDMESSAGEHANDLER_ITER_GAP uFldMessageHandler 1.00016      
4.286           UFLDMESSAGEHANDLER_ITER_LEN uFldMessageHandler 0.00012      
4.316           PNODEREPORTER_ITER_GAP pNodeReporter   1.00128      
4.316           NODE_REPORT_LOCAL    pNodeReporter   NAME=felix,X=-1.64,Y=11.39,SPD=0.11,HDG=102.27,LAT=42.35853817,LON=-71.08747133,TYPE=kayak,COLOR=blue,GROUP=blue,MODE=PARK,ALLSTOP=ManualOverride,INDEX=7,YAW=-0.2141519,TIME=1493141562.65,LENGTH=4 
4.316           PNODEREPORTER_ITER_LEN pNodeReporter   0.00064      
4.323           DESIRED_THRUST       pMarinePID      0.00000      
4.329           UFLDNODEBROKER_ITER_GAP uFldNodeBroker  1.00046      
4.336           IM200_ITER_GAP       iM200           1.00999      
4.337           M200_RAW_NMEA        iM200           $CPALT,173242.464,1*62 
4.337           M200_RAW_NMEA        iM200           $CPNVG,173242.475,4221.512196,N,7105.24828,W,1,0,0,0,0,0,173242.411*6C 
4.338           IM200_ITER_LEN       iM200           0.01137      
4.329           PSHARE_CMD           uFldNodeBroker  cmd=output,src_name=NODE_BROKER_PING_0,dest_name=NODE_BROKER_PING,route=192.168.1.155:9200 
4.329           PSHARE_CMD           uFldNodeBroker  cmd=output,src_name=NODE_BROKER_PING_1,dest_name=NODE_BROKER_PING,route=192.168.1.157:9200 
4.329           PSHARE_CMD           uFldNodeBroker  cmd=output,src_name=NODE_BROKER_PING_2,dest_name=NODE_BROKER_PING,route=192.168.1.226:9200 
4.329           UFLDNODEBROKER_ITER_LEN uFldNodeBroker  0.00016      
4.401           PDEADMANPOST_ITER_GAP pDeadManPost    1.00060      
4.401           PDEADMANPOST_ITER_LEN pDeadManPost    0.00022      
4.423           DESIRED_THRUST       pMarinePID      0.00000      
4.437           IM200_ITER_GAP       iM200           1.00289      
4.437           M200_RAW_NMEA        iM200           $GPRMC,173242.60,A,4221.51234,N,07105.24836,W,0.229,102.27,250417,,,A*7D 
4.438           M200_RAW_NMEA        iM200           $GPVTG,102.27,T,,M,0.229,N,0.424,K,A*30 
4.439           M200_RAW_NMEA        iM200           $GPGGA,173242.60,4221.51234,N,07105.24836,W,1,07,1.05,12.1,M,-33.2,M,,*5B 
4.440           M200_RAW_NMEA        iM200           $GPGSA,A,3,26,16,31,23,07,27,08,,,,,,1.83,1.05,1.49*0A 
4.440           M200_RAW_NMEA        iM200           $GPGSV,3,1,10,04,28,058,20,07,19,300,22,08,31,189,24,09,41,297,19*73 
4.440           M200_RAW_NMEA        iM200           $GPGSV,3,2,10,16,66,034,26,21,13,066,17,23,57,244,26,26,39,057,14*76 
4.441           M200_RAW_NMEA        iM200           $GPGSV,3,3,10,27,59,153,27,31,12,111,22*73 
4.441           M200_RAW_NMEA        iM200           $GPGLL,4221.51234,N,07105.24836,W,173242.60,A,A*70 
4.441           M200_RAW_NMEA        iM200           $GPZDA,173242.60,25,04,2017,00,00*66 
4.442           NAV_HEADING          iM200           102.27000    
4.442           NAV_LAT              iM200           42.35854     
4.442           NAV_LONG             iM200           -71.08747    
4.442           NAV_SPEED            iM200           0.11781      
4.442           NAV_X                iM200           -1.75057     
4.442           NAV_Y                iM200           11.48729     
4.442           IM200_ITER_LEN       iM200           0.04946      
4.479           UPROCESSWATCH_ITER_GAP uProcessWatch   0.99898      
4.479           UPROCESSWATCH_ITER_LEN uProcessWatch   0.00004      
4.523           DESIRED_THRUST       pMarinePID      0.00000      
4.526           PHELMIVP_ITER_GAP    pHelmIvP        1.00312      
4.526           IVPHELM_CPU          pHelmIvP        1.99789      
4.526           IVPHELM_STATE        pHelmIvP        PARK 
4.526           IVPHELM_ALLSTOP_DEBUG pHelmIvP        ManualOverride 
4.526           PHELMIVP_ITER_LEN    pHelmIvP        0.00036      
4.537           IM200_ITER_GAP       iM200           1.00328      
